City_ID,City,Lat,Lng,Max Temp,Humidity,Cloudiness,Wind Speed,Country,Date
0,kasane,-17.8167,25.15,23.21,17,0,3.26,BW,1695846255
1,maloye ganyushkino,46.6,49.2667,20.98,40,4,2.48,KZ,1695846256
2,beaufort west,-32.3567,22.583,14.21,59,0,4.65,ZA,1695846256
3,agat village,13.3886,144.6585,26.52,92,40,0.0,GU,1695846256
4,berezna,51.5716,31.7846,13.39,74,8,3.28,UA,1695846256
5,ribeira grande,38.5167,-28.7,23.22,94,75,8.23,PT,1695846256
6,puerto ayora,-0.7393,-90.3518,27.98,90,79,3.13,EC,1695846256
7,koulikoro,14.0,-7.75,26.61,66,100,3.73,ML,1695846256
8,pikalevo,59.5183,34.1664,12.07,78,36,2.81,RU,1695846188
9,walvis bay,-22.9575,14.5053,14.53,82,0,6.17,NA,1695846257
10,nadym,65.5333,72.5167,5.86,93,100,4.22,RU,1695846257
11,hermanus,-34.4187,19.2345,12.99,82,0,6.25,ZA,1695846257
12,yellowknife,62.456,-114.3525,10.79,97,100,3.09,CA,1695846257
13,haverfordwest,51.8017,-4.9691,15.77,88,100,4.92,GB,1695846257
14,ust-tsilma,65.441,52.1498,9.9,93,92,3.04,RU,1695846258
15,fort bragg,35.139,-79.006,20.75,70,100,5.66,US,1695846258
16,adamstown,-25.066,-130.1015,20.93,64,100,3.16,PN,1695846258
17,avarua,-21.2078,-159.775,23.03,88,75,6.69,CK,1695846203
18,port-aux-francais,-49.35,70.2167,1.76,69,76,13.51,TF,1695846258
19,puerto natales,-51.7236,-72.4875,5.25,65,40,2.06,CL,1695846258
20,youghal,51.95,-7.8506,14.75,95,99,12.96,IE,1695846258
21,edinburgh of the seven seas,-37.0676,-12.3116,12.0,64,57,13.26,SH,1695846259
22,roma,43.2128,-75.4557,21.06,44,0,5.14,US,1695846259
23,prainha,-1.8,-53.48,37.51,30,43,2.01,BR,1695846259
24,wanning,18.8003,110.3967,25.99,89,100,0.75,CN,1695846259
25,grytviken,-54.2811,-36.5092,0.75,80,4,4.0,GS,1695846259
26,bugalagrande,4.2121,-76.1556,30.05,55,45,1.51,CO,1695846214
27,kapuskasing,49.4169,-82.4331,20.05,40,20,4.63,CA,1695846000
28,colonia,50.9333,6.95,20.46,72,0,3.6,DE,1695846081
29,ancud,-41.8697,-73.8203,9.81,77,29,8.37,CL,1695846260
30,klyuchi,52.2667,79.1667,10.45,54,100,4.02,RU,1695846260
31,pansemal,21.65,74.7,26.38,82,68,1.43,IN,1695846260
32,kavieng,-2.5744,150.7967,24.96,94,100,5.17,PG,1695846260
33,margaret river,-33.95,115.0667,15.1,85,15,4.41,AU,1695846260
34,yushu,44.8,126.5333,8.61,83,0,3.9,CN,1695846260
35,archangelos,36.2149,28.1149,25.17,80,23,3.21,GR,1695846261
36,al mawsil al jadidah,36.3346,43.0978,30.19,19,1,1.56,IQ,1695846261
37,mount isa,-20.7333,139.5,14.87,51,1,2.06,AU,1695846261
38,constantia,44.1833,28.65,19.38,69,52,7.33,RO,1695846249
39,papatowai,-46.5619,169.4708,8.24,86,100,5.59,NZ,1695846261
40,longyearbyen,78.2186,15.6401,-8.09,73,20,3.09,SJ,1695846035
41,navia,43.5354,-6.7194,18.23,95,73,0.4,ES,1695846261
42,bousso,10.4795,16.7117,27.58,71,56,1.74,TD,1695846261
43,ust-nera,64.5667,143.2,3.36,96,100,3.54,RU,1695846262
44,waitangi,-43.9535,-176.5597,11.57,97,94,4.02,NZ,1695846262
45,mirny,62.5353,113.9611,5.79,66,99,3.39,RU,1695846262
46,talnakh,69.4865,88.3972,-3.77,87,51,2.35,RU,1695846262
47,port mathurin,-19.6833,63.4167,22.46,78,55,7.73,MU,1695846262
48,vadso,70.0744,29.7487,8.49,87,100,6.17,NO,1695846262
49,bel ombre,-4.6167,55.4167,26.91,89,40,7.2,SC,1695846262
50,panaba,21.2833,-88.2667,29.93,63,99,5.64,MX,1695846262
51,hawaiian paradise park,19.5933,-154.9731,27.16,80,40,0.45,US,1695846263
52,belmonte,-15.8631,-38.8828,25.89,74,6,7.12,BR,1695846263
53,nosivka,50.9315,31.5828,14.88,64,6,3.26,UA,1695846263
54,kingston,17.997,-76.7936,33.53,66,40,4.63,JM,1695846263
55,kapa'a,22.0752,-159.319,27.99,78,98,2.24,US,1695846263
56,derbent,42.0678,48.2899,18.89,59,0,2.8,RU,1695846263
57,carutapera,-1.195,-46.02,28.42,67,15,4.93,BR,1695846263
58,bredasdorp,-34.5322,20.0403,11.9,87,0,4.15,ZA,1695846264
59,enewetak,11.3474,162.3373,28.06,79,98,5.53,MH,1695846264
60,daru,-9.0763,143.2092,24.62,85,100,7.33,PG,1695846264
61,itoman,26.1247,127.6694,28.01,86,20,4.63,JP,1695846264
62,kudahuvadhoo,2.6708,72.8944,27.5,74,97,3.6,MV,1695846264
63,lihue,21.9789,-159.3672,27.58,79,94,6.8,US,1695846264
64,manokwari,-0.8667,134.0833,25.31,80,100,2.04,ID,1695846264
65,alavus,62.5833,23.6167,13.95,90,100,4.9,FI,1695846264
66,iqaluit,63.7506,-68.5145,2.85,74,40,11.32,CA,1695846265
67,olinda,-8.0089,-34.8553,26.85,69,20,4.63,BR,1695846265
68,hotan,37.0997,79.9269,16.96,21,0,1.58,CN,1695846265
69,hamilton,39.1834,-84.5333,23.41,86,40,3.6,US,1695846265
70,olonkinbyen,70.9221,-8.7187,3.47,96,100,10.05,SJ,1695846265
71,qaqortoq,60.7167,-46.0333,1.74,91,100,6.38,GL,1695846265
72,axim,4.8699,-2.2405,25.37,89,11,3.44,GH,1695846266
73,fortuna,40.5982,-124.1573,18.85,80,75,5.14,US,1695846266
74,blackmans bay,-43.0167,147.3167,11.4,75,39,2.49,AU,1695846266
75,nova sintra,14.8667,-24.7167,23.32,81,98,8.2,CV,1695846266
76,georgetown,5.4112,100.3354,27.23,91,20,2.24,MY,1695846135
77,bemidji,47.4736,-94.8803,18.92,81,100,3.6,US,1695846261
78,selkirk,50.1436,-96.8845,21.77,62,25,3.58,CA,1695846266
79,gadani,25.1185,66.7299,29.12,81,0,2.81,PK,1695846266
80,tiksi,71.6872,128.8694,-1.89,80,100,3.2,RU,1695846267
81,greenville,35.6127,-77.3663,20.08,85,100,3.6,US,1695845955
82,bethel,41.3712,-73.414,20.47,59,0,4.63,US,1695846267
83,west island,-12.1568,96.8225,24.99,83,16,5.14,CC,1695846267
84,dolores,-36.3132,-57.6792,17.0,58,18,4.28,AR,1695846267
85,itaituba,-4.2761,-55.9836,38.09,41,20,1.06,BR,1695846267
86,san patricio,28.017,-97.5169,35.97,38,92,4.17,US,1695846267
87,udachny,66.4167,112.4,1.92,80,65,7.08,RU,1695846268
88,bamboo flat,11.7,92.7167,25.05,94,100,2.57,IN,1695846268
89,thompson,55.7435,-97.8558,21.09,56,100,7.2,CA,1695846268
90,invercargill,-46.4,168.35,8.34,95,91,4.02,NZ,1695846268
91,bakewar,26.6667,79.1833,27.55,60,0,1.57,IN,1695846268
92,lata,40.1629,-8.3327,19.95,86,94,1.0,PT,1695846268
93,mazamari,-11.3258,-74.5308,34.25,39,85,0.84,PE,1695846269
94,tome,-36.6167,-72.95,13.34,66,92,4.32,CL,1695846210
95,tazovsky,67.4667,78.7,0.31,99,100,4.32,RU,1695846269
96,uturoa,-16.7333,-151.4333,25.64,78,15,8.99,PF,1695846269
97,kenai,60.5544,-151.2583,10.08,61,0,1.54,US,1695846269
98,ushuaia,-54.8,-68.3,5.81,45,0,8.23,AR,1695846029
99,geraldton,-28.7667,114.6,19.23,77,90,2.57,AU,1695846269
100,nouadhibou,20.931,-17.0347,22.99,73,91,8.23,MR,1695846270
101,tuncurry,-32.1667,152.5,15.75,100,84,2.79,AU,1695846270
102,alenquer,-1.9417,-54.7383,38.1,30,13,1.62,BR,1695846270
103,inari,68.906,27.0288,11.11,95,100,2.06,FI,1695846270
104,el calafate,-50.3408,-72.2768,3.15,91,100,0.34,AR,1695846270
105,talcahuano,-36.7167,-73.1167,13.82,67,40,5.66,CL,1695846209
106,mabaruma,8.2,-59.7833,29.66,73,83,3.21,GY,1695846270
107,nogliki,51.8333,143.1667,9.3,97,62,3.17,RU,1695846270
108,xilin hot,43.9667,116.0333,5.92,55,11,2.08,CN,1695846271
109,khandyga,62.6667,135.6,5.75,79,100,2.36,RU,1695846271
110,atafu village,-8.5421,-172.5159,28.14,78,25,4.42,TK,1695846271
111,pedregulho,-20.2569,-47.4767,32.39,26,25,3.6,BR,1695846271
112,albany,42.6001,-73.9662,21.36,54,100,1.35,US,1695846002
113,stanley,54.868,-1.6985,16.77,88,75,4.12,GB,1695846271
114,praia da vitoria,38.7333,-27.0667,24.14,83,40,8.67,PT,1695846271
115,inarajan village,13.2736,144.7484,26.54,97,100,4.85,GU,1695846271
116,kolosovka,56.4678,73.611,7.19,57,100,1.68,RU,1695846272
117,teshi old town,5.5836,-0.1072,26.61,83,9,4.82,GH,1695846272
118,mukalla,14.5425,49.1242,28.47,74,4,2.19,YE,1695846272
119,chinde,26.8418,88.0763,18.08,84,2,2.08,NP,1695846272
120,at taj,24.2049,23.2857,29.36,13,2,4.98,LY,1695846272
121,anderstorp,58.8833,14.2833,12.93,95,71,2.32,SE,1695846272
122,haiku-pauwela,20.9219,-156.3051,28.47,52,20,9.26,US,1695846272
123,cururupu,-1.8283,-44.8683,28.42,65,84,2.97,BR,1695846273
124,ataq,14.5377,46.8319,25.55,66,21,3.42,YE,1695846273
125,bilibino,68.0546,166.4372,-0.43,98,100,3.41,RU,1695846273
126,pico truncado,-46.7949,-67.9573,15.24,30,100,10.59,AR,1695846273
127,antsohihy,-14.8796,47.9875,24.68,55,41,5.31,MG,1695846273
128,carnarvon,-24.8667,113.6333,20.09,87,57,6.02,AU,1695846273
129,coahuayana de hidalgo,18.7,-103.6583,32.75,61,36,3.19,MX,1695846279
130,aykhal,66.0,111.5,-1.24,86,30,5.63,RU,1695846279
131,dwarka,22.2394,68.9678,26.88,75,25,4.37,IN,1695846279
132,mount gambier,-37.8333,140.7667,7.79,96,24,2.08,AU,1695846279
133,puerto deseado,-47.7503,-65.8938,12.14,50,100,2.96,AR,1695846088
134,koblenz,50.35,7.6,20.65,93,100,1.8,DE,1695846196
135,ubari,26.5921,12.7805,26.15,31,0,6.36,LY,1695846279
136,viedma,-40.8135,-62.9967,21.0,21,100,8.02,AR,1695846029
137,nikolayevsk-on-amure,53.1406,140.73,11.23,99,100,1.78,RU,1695846279
138,kharp,66.8014,65.8081,3.85,93,100,0.4,RU,1695846280
139,petropavlovsk-kamchatsky,53.0452,158.6483,-0.67,86,0,4.0,RU,1695846187
140,mil'kovo,55.6078,37.7956,12.81,66,74,1.12,RU,1695846280
141,ust'-ilimsk,58.0006,102.6619,5.22,79,100,1.28,RU,1695846195
142,ilulissat,69.2167,-51.1,3.01,52,75,5.14,GL,1695846280
143,nar'yan-mar,67.6713,53.087,9.36,93,100,6.89,RU,1695846211
144,kyshtovka,56.555,76.6271,8.83,85,100,0.71,RU,1695846137
145,boise,43.6135,-116.2035,20.91,40,75,4.12,US,1695846047
146,la libertad,-2.2333,-80.9,26.81,74,40,4.63,EC,1695846262
147,barra velha,-26.6322,-48.6847,21.95,78,90,3.2,BR,1695846281
148,flin flon,54.7682,-101.865,17.91,77,75,4.12,CA,1695846227
149,hadibu,12.65,54.0333,26.89,80,43,3.83,YE,1695846281
150,yeppoon,-23.1333,150.7333,12.88,83,0,1.33,AU,1695846281
151,tsiombe,-25.3,45.4833,20.89,84,63,1.87,MG,1695846281
152,myitkyina,25.3833,97.4,24.91,84,64,0.74,MM,1695846282
153,vuktyl,63.8567,57.3094,7.62,80,100,2.01,RU,1695846282
154,tomatlan,19.9333,-105.25,31.82,67,85,3.88,MX,1695846282
155,new norfolk,-42.7826,147.0587,12.06,83,84,1.77,AU,1695846282
156,rahatgarh,23.7833,78.3667,24.19,78,36,0.47,IN,1695846282
157,alofi,-19.0595,-169.9187,24.94,73,40,4.63,NU,1695846282
158,waingapu,-9.6567,120.2641,23.76,84,8,2.39,ID,1695846283
159,prado,-17.3411,-39.2208,25.97,74,24,9.15,BR,1695846052
160,tokmok,42.8417,75.3016,15.64,41,7,1.84,KG,1695846283
161,kilju,40.9642,129.3278,17.91,82,99,1.39,KP,1695846283
162,fuglafjordur,62.244,-6.814,10.26,91,100,6.12,FO,1695846283
163,st. john's,47.5649,-52.7093,11.1,79,100,4.12,CA,1695846033
164,indramayu,-6.3264,108.32,25.11,71,79,4.08,ID,1695846283
165,vila velha,-20.3297,-40.2925,28.3,79,0,7.72,BR,1695846284
166,badger,64.8,-147.5333,1.95,82,100,0.0,US,1695846284
167,magdagachi,53.45,125.8,7.18,96,91,2.25,RU,1695846284
168,yuma,32.7253,-114.6244,41.05,9,20,0.0,US,1695846284
169,college,64.8569,-147.8028,1.99,82,100,0.0,US,1695846284
170,santa elena de uairen,4.6167,-61.1333,30.05,41,65,4.19,VE,1695846285
171,monrovia,6.3005,-10.7969,24.87,87,88,3.3,LR,1695846285
172,port douglas,-16.4833,145.4667,22.17,73,82,6.94,AU,1695846285
173,cacu,-18.5567,-51.1308,36.03,22,94,1.52,BR,1695846285
174,cabo san lucas,22.8909,-109.9124,36.45,67,0,5.81,MX,1695846028
175,port saint john's,-31.6229,29.5448,17.66,64,97,5.18,ZA,1695846285
176,sukuta,13.4103,-16.7082,28.01,89,40,0.0,GM,1695846286
177,namie,37.4833,141.0,22.62,96,100,2.61,JP,1695846286
178,bata,1.8639,9.7658,25.93,86,100,1.93,GQ,1695846286
179,nyaunglebin,17.95,96.7333,24.38,99,100,1.73,MM,1695846286
180,whitehorse,60.7161,-135.0538,8.43,95,100,1.54,CA,1695846123
181,lae,-6.7221,146.9847,23.37,90,100,1.79,PG,1695846286
182,yermentau,51.6214,73.1069,11.78,72,100,2.26,KZ,1695846286
183,adigrat,14.277,39.462,16.15,66,100,1.47,ET,1695846287
184,la porte,29.6658,-95.0194,35.06,60,40,3.6,US,1695846287
185,atar,20.5169,-13.0499,36.59,14,100,4.39,MR,1695846287
186,trujillo,-8.116,-79.03,20.98,78,75,4.63,PE,1695846257
187,sao jose da coroa grande,-8.8978,-35.1478,25.45,73,84,4.1,BR,1695846287
188,morehead city,34.7229,-76.726,23.0,81,100,5.14,US,1695846287
189,agnibilekrou,7.1344,-3.2047,23.81,96,2,0.32,CI,1695846287
190,port antonio,18.18,-76.4612,33.95,76,66,1.22,JM,1695846287
191,sisimiut,66.9395,-53.6735,3.25,93,100,2.33,GL,1695846288
192,eraan,9.0629,117.7016,25.85,88,16,2.13,PH,1695846288
193,keflavik,64.0049,-22.5624,10.24,71,75,3.6,IS,1695846288
194,veraval,20.9,70.3667,25.25,85,100,2.48,IN,1695846288
195,kerikeri,-35.2268,173.9474,12.73,94,13,5.22,NZ,1695846288
196,qom,34.6401,50.8764,22.72,26,11,2.48,IR,1695846288
197,mili,6.0815,171.735,28.53,75,48,3.38,MH,1695846288
198,chiavenna,46.3216,9.3986,20.32,78,6,0.48,IT,1695846288
199,port alfred,-33.5906,26.891,12.88,95,100,2.24,ZA,1695846289
200,mesolongi,38.3702,21.4295,22.05,83,100,4.49,GR,1695846289
201,vorkuta,67.5,64.0,0.4,85,100,1.66,RU,1695846289
202,hauterive,46.0901,3.4459,20.42,47,100,0.51,FR,1695846289
203,cockburn town,21.4612,-71.1419,29.03,75,6,5.8,TC,1695846289
204,springe,52.2085,9.5542,18.6,95,86,2.32,DE,1695846289
205,tegucigalpa,14.0818,-87.2068,29.42,58,75,3.6,HN,1695845774
206,peace river,56.2501,-117.286,14.17,67,100,4.12,CA,1695846290
207,broken hill,-31.95,141.4333,9.21,63,0,4.59,AU,1695846290
208,punta arenas,-53.15,-70.9167,6.01,60,0,2.06,CL,1695846290
209,beboto,8.2668,16.939,23.48,88,32,1.38,TD,1695846290
210,tidjikja,18.5564,-11.4271,37.09,19,85,1.61,MR,1695846290
211,castillos,-34.1667,-53.8333,12.72,77,77,4.59,UY,1695846290
212,islamkot,24.6997,70.177,30.02,59,8,5.36,PK,1695846290
213,rice lake,45.5061,-91.7382,20.92,82,100,3.6,US,1695846291
214,jumla,29.2747,82.1838,12.65,86,13,1.56,NP,1695846291
215,rybnoye,54.7256,39.5119,11.24,75,15,0.56,RU,1695846291
216,inhambane,-23.865,35.3833,22.8,95,88,4.58,MZ,1695846291
217,utrik,11.2278,169.8474,28.5,77,98,5.56,MH,1695846291
218,kalmunai,7.4167,81.8167,25.57,83,98,4.19,LK,1695846291
219,la passe,45.5549,-0.8967,20.13,85,100,3.28,FR,1695846291
220,junin de los andes,-39.9504,-71.0694,7.08,75,84,5.85,AR,1695846291
221,korsakov,46.6328,142.7813,11.58,93,100,2.4,RU,1695846292
222,severo-yeniseyskiy,60.3725,93.0408,4.62,89,100,4.31,RU,1695846292
223,puerto aysen,-45.4,-72.7,5.71,100,100,1.63,CL,1695846292
224,sigayevo,56.4216,53.7757,9.16,80,5,2.25,RU,1695846292
225,sitka,57.0531,-135.33,11.94,94,100,6.17,US,1695846292
226,baganga,7.5739,126.56,25.67,85,68,1.88,PH,1695846293
227,port lincoln,-34.7333,135.8667,12.45,79,0,2.65,AU,1695846293
228,wailua homesteads,22.0669,-159.378,27.24,79,96,2.24,US,1695846293
229,lompoc,34.6391,-120.4579,32.79,52,20,9.26,US,1695846293
230,harper,4.375,-7.7169,25.45,90,34,3.9,LR,1695846293
231,toliara,-23.35,43.6667,22.79,83,80,0.16,MG,1695846293
232,guaruja,-23.9931,-46.2564,25.92,100,23,0.51,BR,1695846293
233,juan griego,11.0817,-63.9655,33.07,62,5,6.69,VE,1695846293
234,tuzlukcu,38.4778,31.6264,21.31,43,57,1.87,TR,1695846293
235,island harbour,50.724,-1.2758,17.32,84,47,4.47,GB,1695846294
236,vina del mar,-33.0246,-71.5518,19.04,60,0,7.2,CL,1695846294
237,codrington,-38.2667,141.9667,7.41,96,24,3.62,AU,1695846294
238,sao joao da barra,-21.6403,-41.0511,32.05,76,85,6.79,BR,1695846294
239,tannum sands,-23.9504,151.3693,14.94,88,0,2.57,AU,1695846294
240,vrsac,45.1167,21.3036,15.9,82,0,2.57,RS,1695846294
241,garrni,40.1193,44.7344,15.33,55,0,2.24,AM,1695846294
242,saqqez,36.2499,46.2735,14.89,59,0,1.42,IR,1695846265
243,santo antonio,-6.3106,-35.4789,26.7,54,51,5.73,BR,1695846295
244,les avirons,-21.2418,55.3394,21.05,68,0,8.75,RE,1695846295
245,nemuro,43.3236,145.575,16.59,85,100,4.18,JP,1695846295
246,anadyr,64.75,177.4833,5.28,86,40,4.0,RU,1695846295
247,piti village,13.4626,144.6933,26.49,91,40,0.0,GU,1695846295
248,anamur,36.0751,32.8369,26.63,54,0,3.09,TR,1695846295
249,angaur state,6.906,134.13,28.19,82,99,8.29,PW,1695846295
250,kijang,35.2442,129.2139,22.85,83,0,1.98,KR,1695846296
251,east london,-33.0153,27.9116,16.24,69,100,7.25,ZA,1695846296
252,susuman,62.7833,148.1667,-2.62,98,95,1.81,RU,1695846296
253,bardai,11.65,7.2333,27.8,57,99,3.76,NG,1695846296
254,benjamin constant,-4.3831,-70.0311,32.03,62,40,3.09,BR,1695846296
255,kattivakkam,13.2167,80.3167,26.15,86,98,6.01,IN,1695846296
256,luza,60.6308,47.2512,10.31,93,34,2.61,RU,1695846297
257,kruisfontein,-34.0033,24.7314,11.06,81,2,1.15,ZA,1695846297
258,chudniv,50.052,28.1175,13.75,55,3,3.17,UA,1695846297
259,tenenkou,14.4572,-4.9169,34.75,28,91,2.88,ML,1695846297
260,kantang,7.4054,99.5156,24.43,89,100,0.73,TH,1695846297
261,jamestown,42.097,-79.2353,20.77,35,100,4.12,US,1695846244
262,cidreira,-30.1811,-50.2056,15.61,77,98,8.19,BR,1695846299
263,san felipe,10.3399,-68.7425,32.3,51,57,3.43,VE,1695846299
264,altay,47.8667,88.1167,2.21,54,0,2.92,CN,1695846299
265,fort mcmurray,56.7268,-111.381,21.73,37,20,4.12,CA,1695846175
266,hami,42.8,93.45,13.84,26,0,2.87,CN,1695846299
267,luwingu,-10.2621,29.9271,26.36,39,100,0.88,ZM,1695846299
268,holmsund,63.706,20.3641,12.19,100,75,2.24,SE,1695846299
269,bolobo,-2.1667,16.2333,25.76,74,100,0.81,CD,1695846299
270,el nido,11.1858,119.3956,27.41,80,80,4.26,PH,1695846299
271,ibradi,37.0969,31.5992,17.21,62,0,1.25,TR,1695846300
272,port elizabeth,-33.918,25.5701,13.51,83,75,1.54,ZA,1695846190
273,nuuk,64.1835,-51.7216,3.34,87,75,2.06,GL,1695846148
274,burang,30.25,81.1667,4.81,62,3,1.42,CN,1695846300
275,papao,-17.75,-149.55,26.82,85,0,8.05,PF,1695846300
276,westport,41.1415,-73.3579,20.49,65,0,3.09,US,1695846089
277,tralee,52.2704,-9.7026,14.14,88,40,11.32,IE,1695846300
278,laguna,38.421,-121.4238,29.05,43,0,4.63,US,1695846300
279,kirovskiy,45.0917,133.5136,14.3,97,100,3.26,RU,1695846079
280,malpica,43.3228,-8.8105,21.09,71,100,0.6,ES,1695846300
281,la jolla,32.8473,-117.2742,32.56,68,40,3.6,US,1695846301
282,taoudenni,22.6783,-3.9836,38.23,9,5,1.44,ML,1695846301
283,nyurba,63.2842,118.3319,5.92,65,100,3.06,RU,1695846301
284,kudymkar,59.0173,54.656,11.21,77,99,3.66,RU,1695846263
285,odesskoye,54.2111,72.9651,9.35,64,17,0.58,RU,1695846085
286,jintur,19.6167,76.7,24.45,87,93,1.82,IN,1695846301
287,torghay,49.6339,63.4981,14.46,51,97,2.84,KZ,1695846302
288,severobaykal'sk,55.65,109.3167,7.59,87,36,1.37,RU,1695846302
289,arraial do cabo,-22.9661,-42.0278,25.98,78,75,3.09,BR,1695846303
290,carauari,-4.8828,-66.8958,35.57,42,77,1.47,BR,1695846303
291,nagqu,31.5,92.0,0.49,81,5,1.89,CN,1695846303
292,itigi,-5.7,34.4833,23.97,47,66,5.62,TZ,1695846304
293,lebu,-37.6167,-73.65,12.34,76,100,2.97,CL,1695846304
294,challapata,-18.9,-66.7667,18.97,19,1,4.53,BO,1695846305
295,coquimbo,-29.9533,-71.3436,16.85,63,0,7.2,CL,1695846197
296,okahao,-17.885,15.0667,22.95,14,1,5.76,NA,1695846305
297,kodiak,57.79,-152.4072,9.73,43,0,5.14,US,1695846305
298,tokoroa,-38.2333,175.8667,8.3,88,74,2.24,NZ,1695846305
299,arkalyk,50.2486,66.9114,12.98,56,100,2.58,KZ,1695846305
300,remire-montjoly,4.9167,-52.2667,30.02,70,0,4.63,GF,1695846306
301,woolgoolga,-30.1106,153.2007,19.93,83,89,4.29,AU,1695846306
302,naze,28.3667,129.4833,25.51,85,1,3.51,JP,1695846306
303,igarka,67.4667,86.5833,-1.49,79,24,1.9,RU,1695846306
304,ambam,2.3833,11.2833,21.68,99,100,1.24,CM,1695846306
305,pangody,65.85,74.4859,4.82,96,100,4.33,RU,1695846307
306,aasiaat,68.7098,-52.8699,0.61,69,100,0.06,GL,1695846307
307,bubaque,11.2833,-15.8333,28.28,80,2,4.27,GW,1695846307
308,isafjordur,66.0755,-23.124,4.1,98,100,5.42,IS,1695846307
309,roxas,11.5853,122.7511,24.52,87,46,2.26,PH,1695846308
310,rasht,37.2808,49.5832,18.65,70,2,1.39,IR,1695846259
311,namibe,-15.1961,12.1522,19.27,86,100,1.97,AO,1695846308
312,ola,59.5833,151.2833,1.19,82,67,1.67,RU,1695846308
313,abalak,58.1286,68.5944,8.52,83,100,1.86,RU,1695846308
314,aljezur,37.3191,-8.8033,19.17,80,15,3.38,PT,1695846308
315,bonthe,7.5264,-12.505,26.17,87,89,2.99,SL,1695846309
316,tarauaca,-8.1614,-70.7656,30.89,59,86,2.06,BR,1695846309
317,port isabel,26.0734,-97.2086,37.04,66,0,7.2,US,1695846309
318,zaoyang,32.1272,112.7542,18.43,83,11,2.8,CN,1695846309
319,la sarre,48.8002,-79.1996,19.69,34,0,2.62,CA,1695846269
320,fale old settlement,-9.3852,-171.2468,28.01,80,28,6.76,TK,1695846310
321,mont-dore,-22.2833,166.5833,21.67,99,38,3.18,NC,1695846310
322,ebon,4.582,168.6964,28.8,71,100,3.81,MH,1695846310
323,revda,56.801,59.9303,8.81,83,96,2.71,RU,1695846311
324,muisne,0.6,-80.0333,25.88,78,85,5.41,EC,1695846311
325,choyr,46.3611,108.3611,4.62,63,9,2.41,MN,1695846311
326,volnovakha,47.601,37.4967,17.19,38,0,4.88,UA,1695846311
327,kabalo,-6.05,26.9167,23.79,82,92,0.98,CD,1695846311
328,andovoranto,-18.95,49.1,20.82,85,10,1.31,MG,1695846311
329,canakkale,40.0833,26.8333,19.4,89,100,3.9,TR,1695846311
330,oriximina,-1.7656,-55.8661,37.71,28,8,2.89,BR,1695846312
331,tamanrasset,22.785,5.5228,27.95,13,40,1.03,DZ,1695846312
332,kut chap,17.4257,102.5669,23.22,96,95,2.8,TH,1695846312
333,marica,-22.9194,-42.8186,27.97,84,93,5.77,BR,1695846312
334,hammerfest,70.6634,23.6821,10.25,87,20,3.6,NO,1695846312
335,nchelenge,-9.3451,28.734,25.74,65,100,3.1,ZM,1695846312
336,necochea,-38.5473,-58.7368,17.29,55,8,3.84,AR,1695846313
337,san antonio de pale,-1.4014,5.6325,24.72,85,24,4.52,GQ,1695846313
338,dalandzadgad,43.5708,104.425,11.79,31,69,3.97,MN,1695846313
339,saint-philippe,-21.3585,55.7679,22.77,80,39,6.41,RE,1695846313
340,hovd,48.0056,91.6419,-3.63,67,0,3.76,MN,1695846118
341,nola,40.922,14.5329,24.11,79,0,2.07,IT,1695846313
342,ciudad melchor muzquiz,27.8833,-101.5167,33.53,36,1,2.11,MX,1695846314
343,sidi khaled,34.387,4.9879,24.81,30,44,1.15,DZ,1695846314
344,vorgashor,67.5833,63.95,0.06,86,100,1.47,RU,1695846314
345,kiunga,-6.1219,141.2906,22.75,99,100,1.48,PG,1695846314
346,kavaratti,10.5669,72.642,28.11,77,99,6.77,IN,1695846314
347,shingu,33.7333,135.9833,23.02,89,3,2.39,JP,1695846314
348,slyudyanka,51.6594,103.7061,7.82,94,100,1.1,RU,1695846314
349,mitsamiouli,-11.3847,43.2844,25.33,81,4,5.58,KM,1695846314
350,meadow lake,34.8014,-106.5436,30.44,21,0,3.91,US,1695846315
351,egilsstadir,65.2653,-14.3948,3.95,93,75,0.0,IS,1695846315
352,colorado,-22.8375,-51.9731,32.14,38,1,8.31,BR,1695846315
353,saint-joseph,-21.3667,55.6167,22.21,76,21,6.27,RE,1695846315
354,chonchi,-42.6128,-73.8092,12.84,77,35,4.68,CL,1695846315
355,loa janan,-0.583,117.095,23.31,90,98,1.07,ID,1695846315
356,dudinka,69.4058,86.1778,-3.54,81,14,3.69,RU,1695846315
357,yingshang chengguanzhen,32.6295,116.2701,20.86,73,100,2.58,CN,1695846315
358,chelghoum el aid,36.1629,6.1665,20.32,68,0,3.26,DZ,1695846316
359,palmeira das missoes,-27.8994,-53.3136,12.92,85,100,5.23,BR,1695846316
360,yuci,37.6803,112.7319,12.86,82,11,2.0,CN,1695846316
361,palu,-0.8917,119.8707,24.0,93,88,1.69,ID,1695846316
362,valdivia,-39.8142,-73.2459,11.05,98,100,2.43,CL,1695846126
363,vilyuchinsk,52.9306,158.4028,0.15,75,5,2.82,RU,1695846316
364,caconda,-13.7333,15.0667,21.22,45,24,2.9,AO,1695846316
365,kiama,-34.6833,150.8667,16.32,95,79,2.46,AU,1695846316
366,kolonia town,6.964,158.206,25.0,100,100,1.54,FM,1695846317
367,chibougamau,49.9168,-74.3659,18.79,34,0,1.54,CA,1695846317
368,bandarbeyla,9.4942,50.8122,26.29,84,47,9.36,SO,1695846317
369,aoulef,26.9667,1.0833,35.91,12,42,1.23,DZ,1695846317
370,vyazemskiy,47.5378,134.7525,14.25,96,98,2.37,RU,1695846317
371,kuqa,41.7278,82.9364,18.04,36,0,1.3,CN,1695846317
372,mildura,-34.2,142.15,6.15,84,0,4.01,AU,1695846317
373,hithadhoo,-0.6,73.0833,27.11,77,100,2.57,MV,1695846318
374,katsuura,35.1333,140.3,23.94,90,16,2.77,JP,1695846318
375,kill devil hills,36.0307,-75.676,21.1,85,100,8.23,US,1695846318
376,portland,45.5234,-122.6762,17.38,82,75,8.75,US,1695845911
377,tchollire,8.4022,14.1698,25.97,75,100,1.45,CM,1695846318
378,carora,10.1755,-70.0827,36.72,27,2,2.22,VE,1695846318
379,ormond-by-the-sea,29.3491,-81.0665,26.13,98,75,4.12,US,1695846318
380,vilyuysk,63.7553,121.6247,4.19,74,81,2.67,RU,1695846318
381,negotin,44.2264,22.5308,17.52,41,50,2.72,RS,1695846319
382,north bend,43.4065,-124.2243,19.02,63,0,3.6,US,1695846319
383,lincoln,40.8,-96.667,26.67,48,0,2.06,US,1695846202
384,tozeur,33.9197,8.1335,28.22,32,40,3.09,TN,1695846319
385,minas de marcona,-15.2119,-75.1103,16.09,73,63,7.53,PE,1695846319
386,saint-pierre,-21.3393,55.4781,22.82,68,0,8.75,RE,1695846319
387,padangsidempuan,1.3667,99.2667,21.39,99,59,0.67,ID,1695846319
388,broome,42.2506,-75.833,22.06,55,0,2.06,US,1695846319
389,karaidel',55.8337,56.9069,8.0,82,58,0.95,RU,1695846320
390,sambava,-14.2667,50.1667,22.21,85,78,6.31,MG,1695846320
391,kyren,51.6828,102.1408,6.45,93,100,0.39,RU,1695846320
392,al mahwit,15.4701,43.5448,19.54,66,6,0.37,YE,1695846320
393,fort stockton,30.894,-102.8793,34.53,24,0,2.06,US,1695846320
394,aketi,2.7388,23.7833,22.1,98,22,1.36,CD,1695846320
395,surin,14.8818,103.4936,26.06,99,100,2.61,TH,1695846040
396,ciudad insurgentes,25.2625,-111.7753,35.28,30,0,5.67,MX,1695846321
397,puerto lempira,15.2667,-83.7667,32.08,66,40,2.57,HN,1695846264
398,villmergen,47.3492,8.2458,16.84,86,16,0.89,CH,1695846321
399,richards bay,-28.783,32.0377,17.75,74,96,1.64,ZA,1695846321
400,den burg,53.0542,4.7972,19.44,80,100,6.17,NL,1695846321
401,vung tau,10.346,107.0843,26.39,85,100,3.17,VN,1695846321
402,porto velho,-8.7619,-63.9039,37.03,36,40,1.03,BR,1695846234
403,margate,51.3813,1.3862,19.94,77,100,2.68,GB,1695846321
404,great falls,47.5002,-111.3008,21.66,40,0,3.09,US,1695846321
405,kralendijk,12.15,-68.2667,32.99,55,0,4.63,BQ,1695846322
406,micheweni,-4.9667,39.8333,24.96,84,2,4.2,TZ,1695846322
407,nuku'alofa,-21.1333,-175.2,25.19,78,40,5.14,TO,1695846322
408,mandera,3.9366,41.867,30.64,37,26,4.14,KE,1695846322
409,prince rupert,54.3161,-130.3201,13.05,89,75,5.66,CA,1695846322
410,dakhla,23.6848,-15.958,22.01,83,49,9.26,EH,1695846322
411,grand falls-windsor,48.9332,-55.6649,16.39,74,0,4.32,CA,1695846322
412,canico,32.6333,-16.85,24.84,81,20,2.57,PT,1695846322
413,san matias,-16.3667,-58.4,36.43,28,85,2.53,BO,1695846323
414,merizo village,13.2658,144.6691,26.31,97,100,5.35,GU,1695846323
415,maceio,-9.6658,-35.7353,26.69,73,0,4.63,BR,1695846219
416,sola,-13.8833,167.55,25.58,81,100,10.58,VU,1695846323
417,oum hadjer,13.2954,19.6966,28.05,57,52,11.62,TD,1695846323
418,zhongshu,24.5167,103.7667,17.01,99,100,1.37,CN,1695846323
419,palikir - national government center,6.9248,158.1611,24.41,100,100,1.54,FM,1695846323
420,zadar,44.1197,15.2422,23.34,43,0,5.66,HR,1695846319
421,crane,31.3974,-102.3501,33.31,24,0,3.4,US,1695846323
422,eiguliai,54.9282,23.9329,19.03,82,0,2.57,LT,1695846324
423,sinabang,2.4803,96.3801,25.84,84,100,2.68,ID,1695846324
424,baishan,41.9431,126.4286,8.89,84,0,0.5,CN,1695846324
425,la ronge,55.1001,-105.2842,20.12,55,75,0.51,CA,1695846324
426,carbonear,47.7332,-53.2148,11.18,79,23,4.91,CA,1695846324
427,palmerston north,-40.35,175.6167,12.25,96,100,0.45,NZ,1695846247
428,richfield,44.8833,-93.283,22.77,70,75,5.14,US,1695846324
429,yuzhno-kurilsk,44.0306,145.8556,14.59,86,100,2.74,RU,1695846324
430,halberstadt,51.9,11.05,20.93,74,100,1.65,DE,1695846325
431,wanlaweyn,2.6185,44.8938,26.08,78,3,7.15,SO,1695846325
432,jayapura,-2.5333,140.7,24.66,86,95,1.83,ID,1695846325
433,iskateley,67.6803,53.1512,9.32,93,100,6.9,RU,1695846325
434,cedeira,43.6797,-8.0209,19.47,80,100,2.65,ES,1695846325
435,miri,4.4148,114.0089,25.08,94,40,1.03,MY,1695846325
436,cadale,2.7603,46.3222,26.18,86,6,6.99,SO,1695846325
437,pacific grove,36.6177,-121.9166,26.97,72,0,4.92,US,1695846326
438,sittwe,20.15,92.9,27.55,87,100,2.86,MM,1695846326
439,santiago de cao,-7.9589,-79.2392,21.07,78,75,4.63,PE,1695846326
440,bokovskaya,49.229,41.8306,17.43,46,0,3.34,RU,1695846326
441,hasaki,35.7333,140.8333,22.94,87,96,2.32,JP,1695846326
442,pisco,-13.7,-76.2167,21.03,68,40,6.17,PE,1695846326
443,belel,7.05,14.4333,17.17,90,12,1.06,CM,1695846326
444,bayganin,48.6947,55.8742,17.39,48,100,3.28,KZ,1695846326
445,tuy hoa,13.0833,109.3,25.08,89,100,3.15,VN,1695846327
446,vicuna,-30.0319,-70.7081,26.54,30,0,3.88,CL,1695846210
447,scarborough,54.2797,-0.4044,18.76,87,96,2.24,GB,1695846314
448,plettenberg bay,-34.0527,23.3716,12.77,78,0,2.31,ZA,1695846327
449,monghyr,25.3833,86.4667,28.95,75,93,0.57,IN,1695846132
450,kuta,-8.7233,115.1723,25.97,88,20,3.6,ID,1695846327
451,flying fish cove,-10.4217,105.6791,23.82,88,100,5.66,CX,1695846327
452,sosnogorsk,63.6023,53.8817,10.08,96,96,3.21,RU,1695846327
453,pyay,18.8167,95.2167,24.68,97,100,1.61,MM,1695846328
454,pont rouge,48.8833,-72.0825,20.06,50,0,1.22,CA,1695846328
455,ad dilam,23.9915,47.1627,32.23,17,0,2.45,SA,1695846328
456,luganville,-15.5333,167.1667,23.87,78,99,5.25,VU,1695846328
457,saldanha,-33.0117,17.9442,13.03,72,0,2.91,ZA,1695846328
458,butte,39.6499,-121.5677,26.32,41,0,3.6,US,1695846328
459,bratsk,56.1325,101.6142,3.27,71,100,1.66,RU,1695846328
460,usogorsk,63.4106,48.6872,10.27,95,22,3.33,RU,1695846329
461,tolanaro,-25.0319,46.9987,23.04,83,20,11.83,MG,1695846329
462,san miguel,13.4833,-88.1833,34.81,49,0,4.12,SV,1695846251
463,mount pearl,47.5166,-52.7813,10.25,79,37,0.89,CA,1695846329
464,ogdensburg,44.6942,-75.4863,20.57,52,0,3.09,US,1695846329
465,kaka,37.3482,59.6143,20.79,27,77,3.98,TM,1695846329
466,alpena,45.0617,-83.4327,18.18,73,100,4.63,US,1695846329
467,talanga,14.4,-87.0833,30.02,63,69,1.41,HN,1695846329
468,kone,-21.0595,164.8658,17.91,71,5,2.01,NC,1695846330
469,san sebastian de la gomera,28.0916,-17.1133,25.21,78,20,2.57,ES,1695846207
470,al kharijah,25.4514,30.5464,31.58,14,5,4.3,EG,1695846330
471,toprakkale,37.0686,36.1466,23.49,86,1,0.76,TR,1695846330
472,puerto baquerizo moreno,-0.9,-89.6,26.55,69,75,8.23,EC,1695846330
473,arkhangel'sk,64.5401,40.5433,10.44,94,100,2.7,RU,1695846330
474,bullsbrook,-31.6667,116.0,20.95,71,26,2.57,AU,1695846330
475,pampa del infierno,-26.5052,-61.1744,24.92,25,1,3.54,AR,1695846331
476,lachi,33.3833,71.3386,27.47,40,0,0.78,PK,1695846331
477,hoa binh,20.8133,105.3383,24.38,99,100,0.62,VN,1695846331
478,bandon,51.7469,-8.7425,14.77,79,91,10.47,IE,1695846331
479,gorgan,36.8387,54.4348,16.98,88,20,0.0,IR,1695846331
480,badiyah,22.45,58.8,23.77,56,0,1.63,OM,1695846331
481,kharkhorin,47.1975,102.8238,0.48,85,28,2.33,MN,1695846332
482,patong,7.8961,98.2966,28.34,79,99,4.71,TH,1695846332
483,yekaterinoslavka,50.3734,129.1139,7.54,89,83,1.0,RU,1695846332
484,leua,48.2156,18.6071,19.16,48,7,3.06,SK,1695846332
485,awjilah,29.1081,21.2869,26.33,33,5,3.98,LY,1695846332
486,thunder bay,48.4001,-89.3168,18.99,59,20,6.69,CA,1695846119
487,weyburn,49.6668,-103.8511,19.12,55,68,7.2,CA,1695846332
488,taroudant,30.4703,-8.877,23.16,67,0,3.67,MA,1695846333
489,sanctuary point,-35.1114,150.629,15.42,87,92,0.98,AU,1695846333
490,belyy yar,53.6039,91.3903,-0.06,93,0,0.0,RU,1695846333
491,nykobing mors,56.7933,8.8528,16.18,91,96,3.7,DK,1695846333
492,loiza,18.4313,-65.8802,30.98,76,75,5.14,PR,1695846333
493,kununurra,-15.7667,128.7333,25.99,57,100,2.57,AU,1695846333
494,cherdyn',60.403,56.4787,8.9,94,60,3.09,RU,1695846333
495,cascais,38.6979,-9.4215,22.19,75,0,5.36,PT,1695846234
496,beau vallon,-20.4189,57.6953,23.13,78,40,4.63,MU,1695846334
497,lichinga,-13.3128,35.2406,20.54,51,38,4.16,MZ,1695846334
498,stjordalshalsen,63.4681,10.9262,9.36,100,40,2.57,NO,1695846334
499,puerto colombia,10.9878,-74.9547,32.05,72,89,5.06,CO,1695846334
500,pitimbu,-7.4706,-34.8086,27.33,73,72,4.38,BR,1695846334
501,sault ste. marie,46.5168,-84.3333,20.16,42,0,5.66,CA,1695845828
502,sylvan lake,52.3168,-114.0853,16.76,31,20,1.54,CA,1695846335
503,guerrero negro,27.9769,-114.0611,24.7,56,61,6.3,MX,1695846335
504,akjoujt,19.6969,-14.4164,37.09,14,100,4.35,MR,1695846335
505,santa cruz,-17.8,-63.1667,25.7,47,75,6.69,BO,1695846335
506,kiselevsk,53.99,86.6621,4.4,83,100,1.53,RU,1695846335
507,srandakan,-7.9386,110.2506,22.64,92,92,1.99,ID,1695846335
508,oyama,36.3,139.8,25.88,79,65,0.57,JP,1695846335
509,abomsa,9.9833,39.9833,21.93,68,62,3.0,ET,1695846335
510,quellon,-43.1167,-73.6167,9.93,75,28,6.03,CL,1695846335
511,watsa,3.0372,29.5355,16.15,95,100,1.3,CD,1695846335
512,sucua,-2.4667,-78.1667,32.41,40,20,4.12,EC,1695846336
513,kirakira,-10.4544,161.9205,26.28,86,95,5.24,SB,1695846336
514,touros,-5.1989,-35.4608,26.27,65,7,4.97,BR,1695846336
515,maisi,43.0395,41.2621,17.23,57,2,2.47,GE,1695846336
516,beledweyne,4.7358,45.2036,28.17,61,34,9.25,SO,1695846336
517,poso,-1.3959,120.7524,24.79,73,98,2.78,ID,1695846336
518,brisas de zicatela,15.8369,-97.0419,32.29,58,20,4.12,MX,1695846337
519,ibia,-19.4783,-46.5389,26.7,53,99,0.4,BR,1695846337
520,aromashevo,56.8602,68.6375,10.74,63,100,3.47,RU,1695846337
521,san borja,-14.8167,-66.85,26.96,79,98,3.66,BO,1695846337
522,deschutes river woods,43.9915,-121.3584,14.68,49,0,6.69,US,1695846337
523,karasburg,-28.0167,18.75,15.75,26,0,4.62,NA,1695846337
524,lautoka,-17.6167,177.4667,25.92,78,20,3.09,FJ,1695846337
525,taltal,-25.4,-70.4833,16.73,70,22,3.65,CL,1695846021
526,lazaro cardenas,17.9583,-102.2,30.89,66,8,4.85,MX,1695846309
527,makokou,0.5738,12.8642,22.86,94,100,0.55,GA,1695846337
528,road town,18.4167,-64.6167,32.05,66,20,6.17,VG,1695846115
529,chokwe,-24.5333,32.9833,19.33,96,100,4.91,MZ,1695846338
530,kiffa,16.6166,-11.4045,36.79,31,59,2.6,MR,1695846338
531,verkhnevilyuysk,63.4453,120.3167,5.7,65,98,2.8,RU,1695846338
532,ahus,55.9167,14.2833,15.08,96,100,0.0,SE,1695846338
533,concepcion,-36.827,-73.0498,13.89,67,40,5.66,CL,1695846338
534,malango,-2.9627,119.9001,16.98,92,100,0.88,ID,1695846338
535,balabac,7.9868,117.0645,27.32,79,91,2.24,PH,1695846338
536,al jawf,29.5,38.75,27.83,21,6,3.0,SA,1695846338
537,naracoorte,-36.9579,140.7383,6.15,95,5,1.54,AU,1695846339
538,el-tor,28.2364,33.6254,28.08,74,0,5.14,EG,1695846339
539,megion,61.0296,76.1136,4.01,71,100,1.3,RU,1695846339
540,vila franca do campo,37.7167,-25.4333,23.23,90,55,6.59,PT,1695846339
541,serdar,38.9764,56.2757,18.32,35,0,0.87,TM,1695846339
542,sontra,51.0667,9.9333,18.69,91,41,1.14,DE,1695846339
543,pimentel,-6.8367,-79.9342,25.16,61,0,7.72,PE,1695846340
544,mokhsogollokh,61.4681,128.9203,2.59,95,92,1.98,RU,1695846340
545,joshimath,30.5667,79.5667,16.49,63,0,1.59,IN,1695846340
546,bryne,58.7354,5.6477,14.97,83,0,2.57,NO,1695846340
547,ndele,8.4109,20.6473,21.79,95,100,0.37,CF,1695846340
548,masterton,-40.9597,175.6575,9.38,96,100,0.6,NZ,1695846340
549,sao miguel,-5.4667,-35.3667,27.43,63,27,5.38,BR,1695846340
550,qarazhal,48.0078,70.7903,14.75,65,88,0.91,KZ,1695846340
551,coursan,43.2337,3.0571,20.45,70,100,1.23,FR,1695846340
552,ta`u,-14.2336,-169.5144,25.86,73,98,7.47,AS,1695846341
553,kalabo,-14.97,22.6814,22.74,44,32,2.11,ZM,1695846341
554,erenhot,43.6475,111.9767,10.8,22,1,2.38,CN,1695846341
555,shajiang,26.7825,119.9669,23.74,85,69,1.91,CN,1695846341
556,alatyr',54.8421,46.5813,9.22,80,0,1.54,RU,1695846341
557,magadan,59.5667,150.8,0.85,89,65,1.39,RU,1695846341
558,luderitz,-26.6481,15.1594,22.04,34,0,3.92,NA,1695846341
559,bilajer,40.5681,50.0378,15.9,94,1,1.03,AZ,1695846342
560,tonghae,37.5439,129.1069,20.53,88,73,2.65,KR,1695846342
561,aioun,16.6614,-9.6149,37.45,23,49,1.89,MR,1695846342
562,porto novo,6.4965,2.6036,26.9,87,17,2.92,BJ,1695846342
563,danjiangkou,32.5428,111.5086,18.59,84,34,1.56,CN,1695846342
564,cooper's town,26.8667,-77.5167,28.45,69,100,2.49,BS,1695846342
565,oranjemund,-28.55,16.4333,18.46,47,0,5.66,NA,1695846342
566,dharchula,29.85,80.5333,18.66,62,0,2.31,IN,1695846342
567,viqueque,-8.8673,126.3658,21.98,90,25,0.66,TL,1695846342
568,lamarque,-39.423,-65.7021,23.07,13,100,7.78,AR,1695846343
569,tamboril,19.4854,-70.611,32.43,58,75,8.23,DO,1695846343
570,nizhnesortymskiy,62.4397,71.7603,6.91,94,100,4.61,RU,1695846343
571,bureya,49.8133,129.8131,8.74,91,99,2.0,RU,1695846343
572,rongelap,11.1635,166.8941,26.92,80,100,1.5,MH,1695846343
573,afaahiti,-17.75,-149.2833,25.93,86,1,5.69,PF,1695846343
574,doume,4.2333,13.45,21.37,96,69,0.76,CM,1695846343
575,rio branco do sul,-25.19,-49.3142,23.47,55,34,2.92,BR,1695846343
576,ketou,7.3633,2.5998,25.08,93,18,2.32,BJ,1695846343
577,ao luek,8.378,98.7212,25.07,93,100,0.85,TH,1695846344
578,ondjiva,-17.0667,15.7333,26.02,11,0,3.6,AO,1695846344
